[
  { "name": "신동초등학교", "aliases": ["신동초"], "lat": 37.5129, "lng": 127.0118 },
  { "name": "잠원초등학교", "aliases": ["잠원초"], "lat": 37.5167, "lng": 127.0148 },
  { "name": "세화고등학교", "aliases": ["세화고"], "lat": 37.5030, "lng": 126.9968 },
  { "name": "세화중학교", "aliases": ["세화중"], "lat": 37.5036, "lng": 126.9974 },
  { "name": "세화여자중학교", "aliases": ["세화여중"], "lat": 37.5042, "lng": 126.9979 },
  { "name": "계성초등학교", "aliases": ["계성초"], "lat": 37.5055, "lng": 126.9986 },
  { "name": "덜위치칼리지서울", "aliases": ["덜위치칼리지", "Dulwich College Seoul"], "lat": 37.5054, "lng": 126.9981 },
  { "name": "신반포중학교", "aliases": ["신반포중"], "lat": 37.5037, "lng": 127.0069 },
  { "name": "반원초등학교", "aliases": ["반원초"], "lat": 37.5030, "lng": 127.0022 },
  { "name": "청담고등학교", "aliases": ["청담고"], "lat": 37.5253, "lng": 127.0572 },
  { "name": "신동중학교", "aliases": ["신동중"], "lat": 37.5147, "lng": 127.0132 },
  { "name": "경원중학교", "aliases": ["경원중"], "lat": 37.5169, "lng": 127.0193 },
  { "name": "원촌초등학교", "aliases": ["원촌초"], "lat": 37.5177, "lng": 127.0123 },
  { "name": "원촌중학교", "aliases": ["원촌중"], "lat": 37.5184, "lng": 127.0131 }
]
