[
  { "name": "고속터미널역", "aliases": ["고터"], "lat": 37.5048, "lng": 127.0049 },
  { "name": "잠원역", "aliases": [], "lat": 37.5126, "lng": 127.0115 },
  { "name": "사평역", "aliases": [], "lat": 37.5043, "lng": 127.0150 },
  { "name": "반포역", "aliases": [], "lat": 37.5082, "lng": 127.0089 },
  { "name": "신사역", "aliases": [], "lat": 37.5164, "lng": 127.0206 },
  { "name": "신반포역", "aliases": [], "lat": 37.5038, "lng": 127.0110 },
  { "name": "구반포역", "aliases": [], "lat": 37.5017, "lng": 126.9876 }
]
